City_ID,City,Country,Lat,Lng,Max Temp,Humidity,Cloudiness,Wind Speed,Current Description
0,Khatanga,RU,71.9667,102.5,31.06,95,100,10.92,overcast clouds
1,Kashi,CN,39.4547,75.9797,74.41,31,100,20.13,moderate rain
2,Bethel,US,41.3712,-73.414,74.1,84,100,3.44,overcast clouds
3,Ngunguru,NZ,-35.6167,174.5,61.57,70,100,20.47,overcast clouds
4,Bathsheba,BB,13.2167,-59.5167,83.01,74,40,16.11,scattered clouds
5,Castro,BR,-24.7911,-50.0119,72.61,48,48,9.62,scattered clouds
6,Kathu,TH,7.9178,98.3332,85.75,82,100,17.74,moderate rain
7,Hilo,US,19.7297,-155.09,74.28,91,100,6.91,overcast clouds
8,Almeria,ES,37.1667,-2.3333,82.44,23,32,8.32,scattered clouds
9,Punta Arenas,CL,-53.15,-70.9167,41.11,65,40,17.27,scattered clouds
10,Georgetown,MY,5.4112,100.3354,84.15,79,20,1.14,few clouds
11,Santa Ana,US,33.7456,-117.8678,65.98,78,100,5.75,overcast clouds
12,Narsaq,GL,60.9167,-46.05,61.02,42,19,10.07,few clouds
13,Port Macquarie,AU,-31.4333,152.9167,51.89,87,19,6.76,few clouds
14,Zabaykalsk,RU,49.6333,117.3167,49.96,29,99,5.66,overcast clouds
15,Puerto Ayora,EC,-0.7393,-90.3518,76.96,90,99,11.01,overcast clouds
16,Sorong,ID,-0.8833,131.25,79.43,79,76,1.19,broken clouds
17,Staryy Nadym,RU,65.6118,72.6842,60.96,35,4,21.88,clear sky
18,Puerto Montt,CL,-41.4698,-72.9447,47.23,76,75,8.05,broken clouds
19,Kholodnyy,RU,62.7167,147.95,38.88,80,100,2.24,overcast clouds
20,Dikson,RU,73.5069,80.5464,27.55,95,22,8.66,few clouds
21,Moerai,PF,-22.4333,-151.3333,75.85,79,91,12.44,light rain
22,Saskylakh,RU,71.9167,114.0833,18.55,96,94,0.74,overcast clouds
23,Mangai,CD,-4.05,19.5333,71.65,96,86,2.93,light rain
24,Ovalle,CL,-30.5983,-71.2003,66.0,42,86,3.85,overcast clouds
25,Busselton,AU,-33.65,115.3333,55.33,66,87,12.91,overcast clouds
26,Hithadhoo,MV,-0.6,73.0833,84.27,70,33,10.29,scattered clouds
27,Arman,RU,59.7,150.1667,36.95,96,64,1.63,broken clouds
28,Beringovskiy,RU,63.05,179.3167,38.17,87,20,7.61,few clouds
29,Touros,BR,-5.1989,-35.4608,82.69,67,98,9.28,overcast clouds
30,Porto Santo,PT,33.072,-16.3415,70.18,64,75,11.5,broken clouds
31,Port Elizabeth,ZA,-33.918,25.5701,64.09,85,0,23.02,clear sky
32,Nikolskoye,RU,59.7035,30.7861,54.81,87,72,2.51,broken clouds
33,Talnakh,RU,69.4865,88.3972,34.21,87,26,7.92,scattered clouds
34,Nantucket,US,41.2835,-70.0995,64.54,97,100,10.36,fog
35,Rikitea,PF,-23.1203,-134.9692,76.24,72,2,8.41,clear sky
36,Trinidad,BO,-14.8333,-64.9,87.78,62,20,6.91,few clouds
37,Ushuaia,AR,-54.8,-68.3,35.26,87,75,25.32,broken clouds
38,Hamilton,US,39.1834,-84.5333,70.16,81,100,6.91,overcast clouds
39,Ushumun,RU,52.7833,126.5333,49.98,98,100,1.79,light rain
40,Tiznit,MA,29.5833,-9.5,74.52,53,17,6.67,few clouds
41,Hasaki,JP,35.7333,140.8333,64.8,81,93,7.09,overcast clouds
42,Provideniya,RU,64.3833,-173.3,41.77,78,13,6.06,few clouds
43,Buraydah,SA,26.326,43.975,99.05,9,17,16.89,few clouds
44,Avarua,CK,-21.2078,-159.775,75.25,88,29,5.75,scattered clouds
45,Kodiak,US,57.79,-152.4072,62.11,39,100,10.36,overcast clouds
46,Kamaishi,JP,39.2667,141.8833,57.04,82,10,6.73,clear sky
47,Atuona,PF,-9.8,-139.0333,77.58,81,22,15.93,light rain
48,Shimoda,JP,34.6667,138.95,67.06,66,91,3.18,overcast clouds
49,Pitimbu,BR,-7.4706,-34.8086,77.59,88,100,4.52,light rain
50,Kununurra,AU,-15.7667,128.7333,60.78,82,9,0.0,clear sky
51,Kapaa,US,22.0752,-159.319,74.12,87,75,10.36,broken clouds
52,Elko,US,41.0002,-115.5012,51.06,72,100,8.99,overcast clouds
53,Kisangani,CD,0.5167,25.2,68.56,99,100,3.04,overcast clouds
54,Birnin Kebbi,NG,12.4539,4.1975,102.81,20,16,2.48,few clouds
55,Yerbogachen,RU,61.2767,108.0108,40.41,55,55,1.97,broken clouds
56,Marion,US,39.7684,-86.1555,70.2,69,40,5.75,scattered clouds
57,Baruun-Urt,MN,46.6806,113.2792,42.57,72,100,8.12,overcast clouds
58,New Norfolk,AU,-42.7826,147.0587,41.72,87,41,1.07,scattered clouds
59,Qaanaaq,GL,77.484,-69.3632,31.06,81,93,6.17,light snow
60,Zhanaozen,KZ,43.3,52.8,73.04,25,0,5.01,clear sky
61,Asfi,MA,32.2994,-9.2372,68.0,76,9,9.62,clear sky
62,Lata,PT,40.1629,-8.3327,81.59,34,21,9.57,few clouds
63,Kavieng,PG,-2.5744,150.7967,80.71,76,100,5.44,overcast clouds
64,Hermanus,ZA,-34.4187,19.2345,56.8,80,47,19.55,light rain
65,Redlands,US,34.0556,-117.1825,81.43,78,100,0.0,haze
66,Kieta,PG,-6.2167,155.6333,79.68,84,69,2.68,light rain
67,Victoria,HK,22.2855,114.1577,84.38,84,96,11.99,overcast clouds
68,Banyo,CM,6.75,11.8167,70.72,83,31,4.68,light rain
69,Saint-Francois,FR,46.4154,3.9054,69.24,30,0,12.66,clear sky
70,Tambopata,PE,-12.7333,-69.1833,85.89,62,40,4.61,scattered clouds
71,Conceicao Do Araguaia,BR,-8.2578,-49.2647,88.02,48,31,4.47,scattered clouds
72,Sisimiut,GL,66.9395,-53.6735,38.07,66,44,9.71,scattered clouds
73,Mocuba,MZ,-16.8392,36.9856,66.97,78,61,4.41,broken clouds
74,Yellowknife,CA,62.456,-114.3525,57.72,51,20,13.8,few clouds
75,Kitami,JP,43.8031,143.8908,46.11,96,100,16.11,overcast clouds
76,Mataura,NZ,-46.1927,168.8643,45.48,96,38,3.04,scattered clouds
77,Cape Town,ZA,-33.9258,18.4232,60.89,92,75,17.27,broken clouds
78,Naze,JP,28.3667,129.4833,65.32,92,100,13.24,overcast clouds
79,Sorland,NO,67.667,12.6934,46.26,88,100,6.35,overcast clouds
80,Barrow,US,71.2906,-156.7887,32.02,93,100,6.91,overcast clouds
81,Porbandar,IN,21.6422,69.6093,81.68,83,16,15.52,few clouds
82,Cairns,AU,-16.9167,145.7667,63.07,100,18,0.0,few clouds
83,Saint George,US,37.1041,-113.5841,86.95,13,0,17.27,clear sky
84,Namatanai,PG,-3.6667,152.4333,78.37,79,100,1.86,overcast clouds
85,Port-Cartier,CA,50.0334,-66.8654,43.75,97,100,13.47,overcast clouds
86,Gijon,ES,43.5357,-5.6615,74.44,84,34,13.0,scattered clouds
87,Spring Hill,US,28.4769,-82.5255,90.03,47,0,9.22,clear sky
88,Sabang,ID,5.8933,95.3214,83.28,77,100,22.79,moderate rain
89,Bambous Virieux,MU,-20.3428,57.7575,75.45,73,40,11.5,scattered clouds
90,Flin Flon,CA,54.7682,-101.865,55.24,62,75,8.05,broken clouds
91,Trincomalee,LK,8.5711,81.2335,81.45,77,100,21.12,overcast clouds
92,Burnie,AU,-41.0667,145.9167,48.78,88,52,4.52,broken clouds
93,Kudahuvadhoo,MV,2.6708,72.8944,84.15,71,15,13.44,few clouds
94,The Pas,CA,53.8251,-101.2541,48.22,76,100,11.5,overcast clouds
95,Vaini,TO,-21.2,-175.2,75.36,100,75,5.75,light rain
96,Ribeira Grande,PT,38.5167,-28.7,64.8,52,20,14.97,few clouds
97,Lorengau,PG,-2.0226,147.2712,78.87,76,99,2.77,overcast clouds
98,Albany,US,42.6001,-73.9662,75.16,78,89,10.27,overcast clouds
99,Tuktoyaktuk,CA,69.4541,-133.0374,24.8,93,100,6.91,overcast clouds
100,Codrington,AU,-38.2667,141.9667,51.71,79,98,4.74,overcast clouds
101,Caconda,AO,-13.7333,15.0667,62.33,39,1,0.36,clear sky
102,Mecca,SA,21.4267,39.8261,93.04,16,0,8.03,clear sky
103,Kenai,US,60.5544,-151.2583,62.02,64,0,0.0,clear sky
104,Butaritari,KI,3.0707,172.7902,81.28,78,97,13.42,overcast clouds
105,Veselynove,UA,47.3567,31.2349,67.33,55,65,9.44,broken clouds
106,Nicolas Bravo,MX,18.45,-88.9167,82.26,72,98,3.69,overcast clouds
107,Coahuayana,MX,18.7333,-103.6833,90.73,46,99,6.76,overcast clouds
108,Leningradskiy,RU,69.3833,178.4167,29.17,88,100,2.51,overcast clouds
109,Progreso,MX,21.2833,-89.6667,86.38,59,75,11.48,broken clouds
110,Madimba,TZ,-10.4,40.3333,78.19,69,15,14.09,few clouds
111,Katangli,RU,51.7102,143.2326,35.64,99,100,4.72,overcast clouds
112,Feldkirchen,DE,48.148,11.7434,60.42,64,100,8.01,overcast clouds
113,Axim,GH,4.8699,-2.2405,82.53,73,69,8.32,broken clouds
114,Chico,US,39.7285,-121.8375,68.65,62,75,16.11,broken clouds
115,Hobart,AU,-42.8794,147.3294,42.06,92,30,0.0,scattered clouds
116,Trairi,BR,-3.2778,-39.2689,80.67,86,55,9.4,broken clouds
117,Severo-Kurilsk,RU,50.6789,156.125,44.33,96,100,3.94,overcast clouds
118,Norman Wells,CA,65.282,-126.8329,42.84,75,40,8.05,scattered clouds
119,Salta,AR,-24.7859,-65.4117,57.79,62,75,8.05,broken clouds
120,Rock Sound,BS,24.9,-76.2,79.54,75,22,11.14,few clouds
121,Cayenne,GF,4.9333,-52.3333,85.08,25,20,11.5,few clouds
122,Christchurch,NZ,-43.5333,172.6333,40.48,100,33,1.14,scattered clouds
123,San Patricio,US,28.017,-97.5169,90.88,40,10,12.41,clear sky
124,Manama,BH,26.2154,50.5832,93.38,49,0,11.5,clear sky
125,Turukhansk,RU,65.8167,87.9833,48.85,62,27,9.73,scattered clouds
126,Muravlenko,RU,63.7898,74.523,65.19,48,34,5.73,scattered clouds
127,Balabac,PH,7.9868,117.0645,81.1,76,100,4.21,overcast clouds
128,Wloclawek,PL,52.6482,19.0678,50.52,88,95,15.21,overcast clouds
129,East London,ZA,-33.0153,27.9116,65.34,88,0,5.75,clear sky
130,Jamestown,US,42.097,-79.2353,60.53,94,100,10.36,mist
131,Camana,PE,-16.6228,-72.7111,66.87,67,29,7.94,scattered clouds
132,Jining,CN,35.405,116.5814,71.73,62,81,13.89,broken clouds
133,Aksarka,RU,66.5606,67.7975,54.54,42,13,18.92,few clouds
134,Aklavik,CA,68.2191,-135.0107,33.8,75,75,4.61,broken clouds
135,Port Hardy,CA,50.6996,-127.4199,51.98,82,75,5.75,broken clouds
136,Havoysund,NO,70.9963,24.6622,55.63,83,21,13.06,few clouds
137,Bara,NG,10.3744,10.7288,98.51,19,13,9.69,few clouds
138,Kaitangata,NZ,-46.2817,169.8464,42.15,90,32,4.0,scattered clouds
139,San Martin,AR,-33.081,-68.4681,55.94,44,3,3.42,clear sky
140,Lebu,CL,-37.6167,-73.65,48.45,61,1,16.84,clear sky
141,Reforma,MX,18.1,-91.0167,84.0,65,93,7.34,overcast clouds
142,Mahanoro,MG,-19.9,48.8,69.84,86,65,7.7,moderate rain
143,Fukue,JP,32.6881,128.8419,67.62,79,100,7.67,light rain
144,Leshukonskoye,RU,64.8989,45.7622,56.05,69,82,8.61,broken clouds
145,Salalah,OM,17.0151,54.0924,84.29,79,20,9.22,few clouds
146,Ajdabiya,LY,30.7554,20.2263,78.26,55,30,14.32,scattered clouds
147,Pecos,US,31.4229,-103.4932,95.09,16,0,3.44,clear sky
148,Mombetsu,JP,44.3525,143.3525,45.81,97,100,16.53,overcast clouds
149,Rawson,AR,-43.3002,-65.1023,46.38,46,54,24.4,broken clouds
150,Arraial Do Cabo,BR,-22.9661,-42.0278,82.26,54,0,12.66,clear sky
151,Tongliao,CN,43.6125,122.2653,70.11,43,80,14.54,broken clouds
152,Muros,ES,42.7762,-9.0603,75.83,45,1,1.57,clear sky
153,Aranos,NA,-24.1333,19.1167,68.45,20,4,3.71,clear sky
154,General Roca,AR,-39.0333,-67.5833,48.61,22,0,13.15,clear sky
155,Namibe,AO,-15.1961,12.1522,65.77,82,24,7.94,few clouds
156,Susehri,TR,40.1644,38.0867,65.34,60,43,4.41,scattered clouds
157,Iqaluit,CA,63.7506,-68.5145,29.93,86,40,17.27,scattered clouds
158,Kargasok,RU,59.0556,80.8572,64.2,54,87,1.41,overcast clouds
159,Hirara,JP,24.8,125.2833,79.97,90,74,14.36,broken clouds
160,Brokopondo,SR,4.75,-55.1667,83.77,62,37,1.34,scattered clouds
161,Thompson,CA,55.7435,-97.8558,46.56,61,40,4.61,scattered clouds
162,Horsham,GB,51.064,-0.3272,63.88,45,0,6.91,clear sky
163,Itarema,BR,-2.9248,-39.9167,82.15,78,27,12.44,scattered clouds
164,Price,US,39.5994,-110.8107,71.11,18,0,13.8,clear sky
165,Ikom,NG,5.9667,8.7063,77.49,85,99,1.7,overcast clouds
166,Cidreira,BR,-30.1811,-50.2056,63.95,94,98,4.41,overcast clouds
167,Mineiros,BR,-17.5694,-52.5511,82.62,33,0,7.85,clear sky
168,Longyearbyen,SJ,78.2186,15.6401,49.84,53,40,12.66,scattered clouds
169,Klaksvik,FO,62.2266,-6.589,49.12,76,5,22.21,clear sky
170,Guarapari,BR,-20.6667,-40.4975,78.89,61,100,12.68,overcast clouds
171,Malacatancito,GT,15.2167,-91.5167,72.45,73,75,4.61,broken clouds
172,Anadyr,RU,64.75,177.4833,41.5,80,0,6.71,clear sky
173,Aykhal,RU,66.0,111.5,40.71,53,78,4.83,broken clouds
174,Kushmurun,KZ,52.4503,64.6311,59.07,63,46,7.63,scattered clouds
175,Taseyevo,RU,57.2169,94.8978,47.53,51,5,3.62,clear sky
176,Constitucion,CL,-35.3333,-72.4167,53.33,45,97,7.02,overcast clouds
177,Parintins,BR,-2.6283,-56.7358,91.17,46,45,5.23,scattered clouds
178,Dongsheng,CN,39.8161,109.9776,62.76,61,99,23.62,light rain
179,Nabire,ID,-3.3667,135.4833,75.6,91,75,3.27,broken clouds
180,Srednekolymsk,RU,67.45,153.6833,45.0,51,82,3.02,broken clouds
181,Killybegs,IE,54.6333,-8.45,58.71,68,81,10.83,broken clouds
182,Port Alfred,ZA,-33.5906,26.891,64.18,73,3,5.01,clear sky
183,Inirida,CO,3.8653,-67.9239,86.65,63,81,1.1,broken clouds
184,Channel-Port Aux Basques,CA,47.5702,-59.1367,43.86,96,100,29.62,overcast clouds
185,Ankazoabo,MG,-22.2833,44.5167,65.88,47,0,7.76,clear sky
186,Pokrovsk,UA,48.282,37.1758,58.23,85,50,6.33,scattered clouds
187,Nanortalik,GL,60.1432,-45.2371,41.4,78,98,9.17,overcast clouds
188,Caravelas,BR,-17.7125,-39.2481,79.29,60,67,6.44,broken clouds
189,Sal Rei,CV,16.1833,-22.9167,79.0,65,40,14.97,scattered clouds
190,Yar-Sale,RU,66.8333,70.8333,48.43,48,11,18.54,few clouds
191,Bandar,ID,2.05,99.75,72.28,94,95,3.29,overcast clouds
192,Lodja,CD,-3.4833,23.4333,69.33,98,100,2.01,light rain
193,Roald,NO,62.5833,6.1333,49.75,87,75,11.5,light intensity drizzle
194,Cururupu,BR,-1.8283,-44.8683,82.13,83,28,3.85,scattered clouds
195,Saint-Philippe,RE,-21.3585,55.7679,72.99,69,82,13.06,broken clouds
196,Ketchikan,US,55.3422,-131.6461,50.47,93,75,6.91,light rain
197,Tuatapere,NZ,-46.1333,167.6833,45.43,91,93,4.34,overcast clouds
198,Urgut,UZ,39.4022,67.2431,56.82,75,48,3.85,scattered clouds
199,Hobyo,SO,5.3505,48.5268,78.8,85,17,20.0,few clouds
200,Marsassoum,SN,12.8275,-15.9806,96.89,35,96,4.99,overcast clouds
201,Laguna,US,38.421,-121.4238,67.28,65,0,8.05,clear sky
202,Alofi,NU,-19.0595,-169.9187,75.09,94,98,3.44,overcast clouds
203,Russell,US,32.3502,-85.1999,79.92,53,20,5.75,few clouds
204,Cap Malheureux,MU,-19.9842,57.6142,73.47,71,2,4.0,clear sky
205,Martin,US,27.0837,-80.4164,91.94,59,1,1.01,clear sky
206,Los Llanos De Aridane,ES,28.6585,-17.9182,67.75,76,100,8.99,overcast clouds
207,Mtinko,TZ,-4.55,34.85,67.32,61,97,8.41,overcast clouds
208,Meulaboh,ID,4.1363,96.1285,76.98,85,89,4.23,overcast clouds
209,Tiksi,RU,71.6872,128.8694,28.33,93,100,2.37,overcast clouds
210,Muzhi,RU,65.3667,64.6667,63.93,44,20,19.51,few clouds
211,Andros Town,BS,24.7,-77.7667,85.96,66,22,13.67,few clouds
212,Oussouye,SN,12.485,-16.5469,96.98,48,99,7.36,overcast clouds
213,Gat,IL,31.61,34.7642,83.39,100,1,9.78,clear sky
214,Safita,SY,34.8205,36.1153,73.71,45,0,1.43,clear sky
215,Quatre Cocos,MU,-20.2078,57.7625,75.31,74,5,20.09,clear sky
216,Lucapa,AO,-8.4192,20.7447,73.83,32,0,1.92,clear sky
217,Rabo De Peixe,PT,37.8,-25.5833,65.28,91,75,16.11,broken clouds
218,San Nicolas,PH,18.1725,120.5953,80.73,82,45,4.03,scattered clouds
219,Lompoc,US,34.6391,-120.4579,68.56,90,100,10.36,overcast clouds
220,Matara,LK,5.9485,80.5353,77.36,92,99,8.68,overcast clouds
221,Acapulco,MX,16.8634,-99.8901,85.82,66,100,8.05,overcast clouds
222,Port Blair,IN,11.6667,92.75,84.24,84,75,11.5,mist
223,Grindavik,IS,63.8424,-22.4338,57.15,71,75,24.16,broken clouds
224,Grong,NO,64.4654,12.3149,43.38,96,100,9.37,light rain
225,Erzin,TR,36.9559,36.2,76.21,51,3,3.71,clear sky
226,Jumla,NP,29.2747,82.1838,56.93,92,79,1.66,broken clouds
227,Henties Bay,NA,-22.116,14.2845,57.49,91,41,11.52,scattered clouds
228,Patacamaya,BO,-17.2333,-67.9167,54.88,22,0,7.99,clear sky
229,Micheweni,TZ,-4.9667,39.8333,78.82,72,54,15.05,broken clouds
230,Valparaiso,CL,-33.0393,-71.6273,53.83,75,0,5.75,haze
231,Udachnyy,RU,66.4167,112.4,46.45,39,74,8.25,broken clouds
232,Tilichiki,RU,60.4667,166.1,35.26,99,100,3.56,light snow
233,Upernavik,GL,72.7868,-56.1549,28.54,73,40,3.94,scattered clouds
234,Kalangala,UG,-0.3089,32.225,72.75,67,67,9.8,broken clouds
235,Wewak,PG,-3.5534,143.6268,79.57,78,7,2.53,clear sky
236,Laguna Beach,US,33.5423,-117.7831,66.06,83,100,5.75,overcast clouds
237,Mount Gambier,AU,-37.8333,140.7667,46.31,93,75,3.44,broken clouds
238,Chuy,UY,-33.6971,-53.4616,59.79,62,9,5.5,clear sky
239,Lagoa,PT,39.05,-27.9833,59.56,61,100,16.13,overcast clouds
240,Kapoeta,SS,4.7717,33.5903,83.01,49,85,2.17,overcast clouds
241,Grand Baie,MU,-20.0182,57.5802,75.67,72,2,3.0,clear sky
242,Koygorodok,RU,60.445,50.9968,49.15,97,96,5.3,overcast clouds
243,Venado Tuerto,AR,-33.7456,-61.9688,61.77,43,21,6.02,few clouds
244,Cabinda,AO,-5.55,12.2,80.74,69,20,8.05,few clouds
245,Skibbereen,IE,51.55,-9.2667,61.11,74,17,9.93,few clouds
246,Ulladulla,AU,-35.35,150.4667,55.42,86,94,8.66,overcast clouds
247,Tessalit,ML,20.1986,1.0114,107.67,6,35,5.28,scattered clouds
248,Biak,ID,-0.9131,122.8766,75.45,84,61,3.02,broken clouds
249,Omboue,GA,-1.5746,9.2618,75.45,84,48,8.16,scattered clouds
250,Broome,US,42.2506,-75.833,67.98,86,100,9.22,overcast clouds
251,Carnarvon,AU,-24.8667,113.6333,68.18,75,100,13.42,overcast clouds
252,Mar Del Plata,AR,-38.0023,-57.5575,57.09,61,0,11.5,clear sky
253,Nemuro,JP,43.3236,145.575,46.76,89,97,21.54,overcast clouds
254,Pascagoula,US,30.3658,-88.5561,83.55,54,0,0.0,clear sky
255,Lasa,IT,46.6166,10.7002,65.28,76,86,5.75,overcast clouds
256,Esperance,AU,-33.8667,121.9,56.03,66,69,29.97,light rain
257,Kasane,BW,-17.8167,25.15,66.18,38,0,7.07,clear sky
258,Fortuna,US,40.5982,-124.1573,57.92,87,75,13.8,broken clouds
259,Pangnirtung,CA,66.1451,-65.7125,32.0,64,100,3.44,overcast clouds
260,Mordovo,RU,52.0834,40.77,52.63,76,6,7.78,clear sky
261,Moose Factory,CA,51.2585,-80.6094,50.0,71,100,5.75,overcast clouds
262,Ponta Do Sol,PT,32.6667,-17.1,71.13,58,84,10.6,broken clouds
263,Cherskiy,RU,68.75,161.3,36.05,57,5,4.18,clear sky
264,Copiapo,CL,-27.3667,-70.3333,53.29,40,0,6.69,clear sky
265,Chokurdakh,RU,70.6333,147.9167,27.55,92,78,3.69,broken clouds
266,Bengkulu,ID,-3.8004,102.2655,75.45,89,85,6.64,overcast clouds
267,Manokwari,ID,-0.8667,134.0833,77.59,82,6,3.98,clear sky
268,Clyde River,CA,70.4692,-68.5914,25.03,86,75,12.66,broken clouds
269,Santa Rosa,PH,14.3122,121.1114,80.58,89,82,5.73,broken clouds
270,Safaga,EG,26.7292,33.9365,84.29,46,0,2.73,clear sky
271,Inverell,AU,-29.7833,151.1167,52.66,97,85,3.4,overcast clouds
272,Chimoio,MZ,-19.1164,33.4833,66.06,100,75,5.75,broken clouds
273,Tombouctou,ML,20.0,-3.0,108.82,8,13,7.23,few clouds
274,Bilibino,RU,68.0546,166.4372,36.91,64,91,2.15,overcast clouds
275,Hualmay,PE,-11.0964,-77.6139,68.61,69,63,11.1,broken clouds
276,Cabo San Lucas,MX,22.8909,-109.9124,90.61,55,6,1.07,clear sky
277,Cockburn Town,TC,21.4612,-71.1419,80.37,76,7,19.08,clear sky
278,Narasannapeta,IN,18.4167,84.05,86.54,69,52,12.15,broken clouds
279,Leh,IN,34.1667,77.5833,55.31,39,78,5.64,broken clouds
280,Katsuura,JP,35.1333,140.3,66.49,89,97,8.55,overcast clouds
281,Gizo,SB,-8.103,156.8419,81.5,73,48,2.35,light rain
282,Dublyany,UA,49.9041,24.0864,55.0,62,65,8.59,broken clouds
283,Pacific Grove,US,36.6177,-121.9166,65.41,84,40,4.0,scattered clouds
284,Guerrero,MX,17.6667,-100.0,82.27,47,100,5.03,overcast clouds
285,San Quintin,MX,30.4833,-115.95,65.23,66,78,14.63,broken clouds
286,Richards Bay,ZA,-28.783,32.0377,69.01,75,0,9.44,clear sky
287,Ilulissat,GL,69.2167,-51.1,34.0,85,100,10.92,overcast clouds
288,Faya,SA,18.3851,42.4509,75.72,44,17,6.55,few clouds
289,Waipawa,NZ,-41.4122,175.5153,42.8,89,5,4.52,clear sky
290,Lapua,FI,62.9693,23.0088,51.22,85,100,3.11,overcast clouds
291,Jinhua,CN,29.1078,119.6547,66.54,98,100,0.63,light rain
292,Moscow,RU,55.7522,37.6156,53.64,77,100,10.51,overcast clouds
293,Plettenberg Bay,ZA,-34.0527,23.3716,60.6,82,25,5.32,scattered clouds
294,Walvis Bay,NA,-22.9575,14.5053,61.75,67,6,13.8,clear sky
295,Evensk,RU,61.95,159.2333,39.7,96,100,2.19,light rain
296,Marawi,PH,7.9986,124.2928,68.76,85,100,3.33,overcast clouds
297,Pevek,RU,69.7008,170.3133,28.33,77,77,4.7,broken clouds
298,Mount Isa,AU,-20.7333,139.5,51.57,66,6,0.0,clear sky
299,Lahr,DE,48.35,7.8667,67.06,31,69,3.0,broken clouds
300,Namuac,PH,18.6109,121.1657,80.13,85,24,3.47,few clouds
301,North Bend,US,43.4065,-124.2243,56.91,93,100,4.61,mist
302,Coquimbo,CL,-29.9533,-71.3436,55.13,76,100,3.44,overcast clouds
303,Bluff,NZ,-46.6,168.3333,45.81,88,81,9.13,broken clouds
304,Olafsvik,IS,64.8945,-23.7142,50.32,76,100,11.97,overcast clouds
305,Ginir,ET,7.1333,40.7,59.85,81,66,6.11,light rain
306,Ostrovnoy,RU,68.0531,39.5131,47.55,75,99,11.99,overcast clouds
307,Itacare,BR,-14.2775,-38.9967,79.93,65,20,7.83,few clouds
308,Porto De Moz,BR,-1.7483,-52.2383,82.58,78,48,2.44,scattered clouds
309,Leon,MX,21.1167,-101.6667,82.81,23,15,7.76,few clouds
310,Lakes Entrance,AU,-37.8811,147.981,45.16,89,86,5.79,overcast clouds
311,Chizhou,CN,30.6578,117.4831,68.38,97,100,3.36,overcast clouds
312,Half Moon Bay,US,37.4636,-122.4286,71.58,75,75,14.97,mist
313,Guerrero Negro,MX,27.9769,-114.0611,66.52,64,73,15.95,broken clouds
314,Tabuk,PH,17.4189,121.4443,76.3,92,59,1.28,broken clouds
315,Pisco,PE,-13.7,-76.2167,65.01,77,20,9.22,mist
316,Yaan,NG,7.3833,8.5667,85.51,58,49,10.45,scattered clouds
317,Paamiut,GL,61.994,-49.6678,35.29,84,100,25.3,overcast clouds
318,Tezu,IN,27.9167,96.1667,71.83,94,44,4.12,scattered clouds
319,Vardo,NO,70.3705,31.1107,44.58,81,13,12.66,few clouds
320,Oranjestad,AW,12.524,-70.027,85.95,66,75,21.85,broken clouds
321,Picton,AU,-34.1833,150.6,52.75,85,3,6.08,clear sky
322,Taoudenni,ML,22.6783,-3.9836,103.51,14,96,22.73,overcast clouds
323,Tasiilaq,GL,65.6145,-37.6368,38.3,93,100,33.15,moderate rain
324,Prainha,BR,-1.8,-53.48,84.34,68,22,3.94,few clouds
325,Lerwick,GB,60.1545,-1.1494,46.4,74,99,22.37,overcast clouds
326,Tautira,PF,-17.7333,-149.15,79.84,76,20,15.95,few clouds
327,Saint-Pierre,RE,-21.3393,55.4781,73.08,64,75,12.66,broken clouds
328,Nelson Bay,AU,-32.7167,152.15,55.09,93,3,1.99,clear sky
329,Upata,VE,8.0086,-62.3989,89.89,37,87,7.09,overcast clouds
330,Rongcheng,CN,30.634,117.8517,68.58,97,99,2.93,moderate rain
331,Xinqing,CN,48.2333,129.5,48.65,85,99,2.24,overcast clouds
332,Arinos,BR,-15.9169,-46.1056,86.45,23,18,3.0,few clouds
333,Sur,OM,22.5667,59.5289,89.4,54,0,7.9,clear sky
334,Nome,US,64.5011,-165.4064,33.87,93,100,4.61,overcast clouds
335,Farah,AF,32.5,62.5,72.86,21,0,9.15,clear sky
336,Maniitsoq,GL,65.4167,-52.9,33.21,85,21,21.12,few clouds
337,Sao Filipe,CV,14.8961,-24.4956,73.69,83,28,6.87,scattered clouds
338,Fort Nelson,CA,58.8053,-122.7002,56.79,51,75,9.22,broken clouds
339,Kemlya,RU,54.6963,45.2424,52.11,72,10,17.34,clear sky
340,Tura,IN,25.5198,90.2201,73.65,81,4,4.0,clear sky
341,Sioux Lookout,CA,50.1001,-91.917,64.47,59,75,4.61,broken clouds
342,Aktash,RU,50.3,87.7333,48.07,54,58,1.79,broken clouds
343,Kamenka,RU,51.3223,42.7678,53.11,85,98,8.25,overcast clouds
344,Imbituba,BR,-28.24,-48.6703,70.09,88,100,3.6,heavy intensity rain
345,Nuuk,GL,64.1835,-51.7216,32.88,80,36,15.99,scattered clouds
346,Innisfail,AU,-17.5333,146.0333,63.28,75,13,4.54,few clouds
347,Trelew,AR,-43.249,-65.3051,46.38,41,51,22.17,broken clouds
348,Pierre,US,44.3683,-100.351,79.29,47,0,13.0,clear sky
349,Auki,SB,-8.7676,160.7034,76.15,88,99,2.93,overcast clouds
350,Moindou,NC,-21.6924,165.677,73.24,84,4,4.92,clear sky
351,Westport,US,41.1415,-73.3579,76.44,87,100,9.22,mist
352,Shiraz,IR,29.6036,52.5388,81.84,7,0,4.61,clear sky
353,Calama,CL,-22.4667,-68.9333,63.09,15,0,14.97,clear sky
354,Oytal,KZ,42.9057,73.2697,55.62,81,95,5.21,overcast clouds
355,Prnjavor,BA,44.8703,17.6628,56.46,92,100,4.47,overcast clouds
356,Bredasdorp,ZA,-34.5322,20.0403,60.58,69,35,14.5,scattered clouds
357,Shimanovsk,RU,52.0,127.7,46.99,98,95,3.42,overcast clouds
358,Chumikan,RU,54.7183,135.315,33.44,98,100,18.19,snow
359,Bac Lieu,VN,9.285,105.7244,80.04,82,100,9.93,moderate rain
360,Poum,NC,-20.2333,164.0167,76.73,69,41,8.41,scattered clouds
361,Kampene,CD,-3.6,26.6667,68.43,99,99,3.06,heavy intensity rain
362,Kokopo,PG,-4.352,152.2633,76.41,87,100,4.25,overcast clouds
363,Ewa Beach,US,21.3156,-158.0072,75.15,80,100,5.75,overcast clouds
364,Spruce Grove,CA,53.5334,-113.9187,62.74,49,0,11.5,clear sky
365,Antofagasta,CL,-23.65,-70.4,64.35,67,29,7.23,scattered clouds
366,Te Anau,NZ,-45.4167,167.7167,44.56,91,100,1.52,overcast clouds
367,Nueva Loja,EC,0.0847,-76.8828,73.42,94,75,6.91,broken clouds
368,Orocue,CO,4.7912,-71.3354,83.44,67,91,5.59,overcast clouds
369,Kant,IN,27.8,79.8,95.0,31,31,12.62,scattered clouds
370,Tupelo,US,34.2576,-88.7034,73.69,56,75,0.0,broken clouds
371,Hami,CN,42.8,93.45,77.23,28,49,8.88,scattered clouds
372,Urman,RU,54.8831,56.8742,51.71,94,99,8.57,overcast clouds
373,Villa De Reyes,MX,21.8,-100.9333,76.51,24,10,11.01,clear sky
374,Yumen,CN,40.2833,97.2,66.13,44,99,9.98,light rain
375,Mahebourg,MU,-20.4081,57.7,75.49,73,40,11.5,scattered clouds
376,Oyama,JP,36.3,139.8,73.58,56,55,2.39,broken clouds
377,Noyabrsk,RU,63.1994,75.4507,63.14,57,91,11.16,overcast clouds
378,Arantangi,IN,10.1667,78.9833,81.28,76,71,14.81,broken clouds
379,Nibe,DK,56.9815,9.6392,64.99,39,75,11.5,broken clouds
380,Visnes,NO,59.3556,5.2242,54.82,76,20,35.68,few clouds
381,Iguape,BR,-24.7081,-47.5553,82.08,49,13,1.23,few clouds
382,Magan,ES,39.9683,-3.931,92.89,20,0,6.08,clear sky
383,Clarksburg,US,39.2807,-80.3445,64.9,92,100,6.78,overcast clouds
384,Custoias,PT,41.1053,-7.321,87.12,18,1,2.64,clear sky
385,Nagato,JP,34.3833,131.2,64.44,82,100,7.18,overcast clouds
386,Rochester,US,43.1548,-77.6156,65.03,85,100,4.61,overcast clouds
387,Sistranda,NO,63.7256,8.834,44.56,82,100,24.94,overcast clouds
388,Nyurba,RU,63.2842,118.3319,40.46,66,100,4.81,overcast clouds
389,Catia La Mar,VE,10.6038,-67.0303,89.98,72,40,4.61,scattered clouds
390,Strathmore,CA,51.0501,-113.3852,63.86,38,86,10.36,overcast clouds
391,Lashio,MM,22.9333,97.75,66.97,97,4,1.03,clear sky
392,Torbay,CA,47.6666,-52.7314,42.53,78,100,18.41,light rain
393,Warmbad,NA,-28.45,18.7333,60.37,41,0,12.37,clear sky
394,Galveston,US,29.3669,-94.9669,90.05,72,75,11.5,broken clouds
395,Luanda,AO,-8.8368,13.2343,73.08,80,4,12.08,clear sky
396,Imeni Poliny Osipenko,RU,52.4201,136.4853,37.31,96,100,12.82,light rain
397,College,US,64.8569,-147.8028,60.21,48,40,3.44,scattered clouds
398,Inhambane,MZ,-23.865,35.3833,69.67,77,1,7.27,clear sky
399,Matola,MZ,-25.9622,32.4589,73.51,73,20,11.5,few clouds
400,Shingu,JP,33.7333,135.9833,63.64,63,99,6.38,overcast clouds
401,Oakham,GB,52.6667,-0.7333,58.69,69,100,6.87,overcast clouds
402,Alto Araguaia,BR,-17.3147,-53.2153,84.02,31,0,6.89,clear sky
403,Scarborough,GB,54.2797,-0.4044,56.79,63,40,8.01,scattered clouds
404,Humaita,BR,-7.5061,-63.0208,93.02,42,100,4.65,overcast clouds
405,Carutapera,BR,-1.195,-46.02,81.52,82,62,3.67,broken clouds
406,Portland,US,45.5234,-122.6762,57.58,87,100,6.91,overcast clouds
407,Duluth,US,46.7833,-92.1066,58.08,94,100,12.66,mist
408,Del Rio,US,29.3627,-100.8968,93.24,56,0,16.11,clear sky
409,Dingle,PH,10.9995,122.6711,77.54,88,95,5.1,overcast clouds
410,Bushehr,IR,28.9684,50.8385,82.49,54,0,11.5,clear sky
411,Balykshi,KZ,47.0667,51.8667,64.4,77,0,6.71,clear sky
412,Banjarmasin,ID,-3.3244,114.591,77.14,93,98,3.56,overcast clouds
413,Hanesti,RO,47.9167,26.9833,63.88,75,100,3.27,overcast clouds
414,Sestri Levante,IT,44.2732,9.3968,82.17,65,48,3.0,scattered clouds
415,Souillac,MU,-20.5167,57.5167,75.58,73,40,11.5,light rain
416,Waingapu,ID,-9.6567,120.2641,76.98,86,51,3.11,broken clouds
417,Ancud,CL,-41.8697,-73.8203,48.13,60,86,7.61,overcast clouds
418,Labytnangi,RU,66.6572,66.4183,57.83,40,18,20.56,few clouds
419,Mazara Del Vallo,IT,37.6641,12.588,73.35,91,98,6.6,overcast clouds
420,Guerande,FR,47.3291,-2.4283,72.82,50,4,17.72,clear sky
421,Whitehorse,CA,60.7161,-135.0538,50.09,69,75,11.5,light intensity shower rain
422,Varberg,SE,57.1056,12.2508,59.88,72,97,11.7,overcast clouds
423,Banda Aceh,ID,5.5577,95.3222,80.24,81,98,14.29,light rain
424,Manaus,BR,-3.1019,-60.025,90.09,66,75,9.22,broken clouds
425,Tarakan,ID,3.3,117.6333,76.5,94,75,3.44,broken clouds
426,Taltal,CL,-25.4,-70.4833,62.4,70,0,5.28,clear sky
427,Brae,GB,60.3964,-1.353,45.54,73,100,22.37,overcast clouds
428,Shache,CN,38.4167,77.2406,81.79,18,100,10.76,overcast clouds
429,Huilong,CN,31.8111,121.655,68.94,93,100,16.31,light rain
430,Owando,CG,-0.4819,15.8999,78.3,74,98,2.68,overcast clouds
431,Melnikovo,RU,56.5558,84.085,53.26,55,99,4.81,overcast clouds
432,Basco,PH,20.4487,121.9702,83.71,83,69,12.86,broken clouds
433,Salvador,SV,13.8333,-88.9167,84.06,56,46,1.45,scattered clouds
434,Comodoro Rivadavia,AR,-45.8667,-67.5,44.46,39,0,17.27,clear sky
435,Padang,ID,-0.9492,100.3543,73.45,80,96,4.43,overcast clouds
436,Suhbaatar,MN,50.2314,106.2078,42.57,59,73,5.1,broken clouds
437,Rudnichnyy,RU,59.617,52.4703,48.31,96,100,5.01,overcast clouds
438,Karratha,AU,-20.7377,116.8463,71.62,82,100,6.4,light rain
439,Kumla,SE,59.1277,15.1434,60.75,63,20,4.61,few clouds
440,Santa Vitoria Do Palmar,BR,-33.5189,-53.3681,60.04,63,27,4.79,scattered clouds
441,Haines Junction,CA,60.7522,-137.5108,49.95,57,78,2.3,broken clouds
442,Tehachapi,US,35.1322,-118.449,66.85,59,100,14.0,overcast clouds
443,Manga,BF,11.6636,-1.0731,102.04,21,0,4.72,clear sky
444,Nishihara,JP,26.1842,127.7558,75.25,100,75,10.36,mist
445,Tucurui,BR,-3.7661,-49.6725,86.07,62,9,3.13,clear sky
446,Alyangula,AU,-13.8483,136.4192,73.99,72,13,7.81,few clouds
447,Acarau,BR,-2.8856,-40.12,82.17,78,33,12.77,scattered clouds
448,Beian,NO,63.6559,9.5683,45.01,93,75,20.71,broken clouds
449,Grand-Lahou,CI,5.1367,-5.0242,82.71,70,25,7.07,scattered clouds
450,Fairbanks,US,64.8378,-147.7164,57.22,49,0,3.44,clear sky
451,Berlevag,NO,70.8578,29.0864,48.0,76,37,19.57,scattered clouds
452,Huaral,PE,-11.495,-77.2078,70.36,62,67,9.51,broken clouds
453,Ekhabi,RU,53.5102,142.9671,34.27,98,100,10.51,overcast clouds
454,Darab,IR,28.7519,54.5444,83.39,8,0,7.94,clear sky
455,Krizevci,HR,46.0219,16.5425,57.29,90,100,1.39,overcast clouds
456,Batemans Bay,AU,-35.7167,150.1833,56.1,89,99,4.81,overcast clouds
457,Coolum Beach,AU,-26.5333,153.1,61.23,90,60,7.25,broken clouds
458,Buenos Aires,AR,-34.6132,-58.3772,55.98,76,100,6.91,overcast clouds
459,Ust-Tsilma,RU,65.441,52.1498,51.91,93,100,2.66,light rain
460,San Francisco,US,37.7749,-122.4194,69.22,86,75,14.97,broken clouds
461,Kutum,SD,14.2,24.6667,85.78,8,1,7.31,clear sky
462,Paragominas,BR,-2.9667,-47.4833,86.43,58,33,5.57,scattered clouds
463,Solntsevo,RU,51.4185,36.7499,59.34,85,50,7.14,scattered clouds
464,Nova Olinda Do Norte,BR,-3.8881,-59.0942,86.83,62,49,4.07,scattered clouds
465,Port Hedland,AU,-20.3167,118.5667,75.25,94,100,4.61,overcast clouds
466,Airai,TL,-8.9266,125.4092,58.82,89,43,1.12,scattered clouds
467,Buala,SB,-8.145,159.5921,79.25,82,92,4.25,light rain
468,Hervey Bay,AU,-25.2986,152.8535,62.02,86,72,5.99,broken clouds
469,Zhezkazgan,KZ,47.8043,67.7144,62.51,45,100,13.58,overcast clouds
470,Winton,US,37.3894,-120.6133,71.74,55,83,10.2,broken clouds
471,Hulan Ergi,CN,47.2042,123.6333,61.45,27,100,3.8,overcast clouds
472,Gra Liyia,GR,35.0167,25.6833,80.13,50,0,2.91,clear sky
473,Kukmor,RU,56.1855,50.8944,49.21,96,100,5.41,overcast clouds
474,Durazno,UY,-33.4131,-56.5006,54.18,68,99,7.07,overcast clouds
475,Kaeo,NZ,-35.1,173.7833,62.33,76,100,16.71,overcast clouds
476,Sechura,PE,-5.5569,-80.8222,74.97,57,11,10.09,few clouds
477,Moorhead,US,46.8739,-96.7676,75.97,52,0,5.75,clear sky
478,Lubao,PH,14.9167,120.55,82.11,85,60,5.46,broken clouds
479,Ambanja,MG,-13.6833,48.45,72.37,88,82,2.55,light rain
480,Mitsamiouli,KM,-11.3847,43.2844,79.11,71,57,7.31,light rain
481,Araouane,ML,18.9048,-3.5265,107.62,10,10,5.93,clear sky
482,Wairoa,NZ,-39.0333,177.3667,44.83,91,26,4.38,scattered clouds
483,Gwadar,PK,25.1216,62.3254,82.44,87,0,10.6,clear sky
484,Shubarshi,KZ,48.5872,57.1869,65.62,52,55,6.13,broken clouds
485,Komsomolskiy,UZ,40.4272,71.7189,63.32,48,40,9.22,scattered clouds
486,Vilhena,BR,-12.7406,-60.1458,82.62,61,75,10.36,broken clouds
487,San Policarpo,PH,12.1791,125.5072,78.71,87,89,5.41,overcast clouds
488,Nianzishan,CN,47.5167,122.8833,60.44,27,100,0.83,overcast clouds
489,Suez,EG,29.9737,32.5263,82.27,32,0,14.03,clear sky
490,Kushima,JP,31.4583,131.2333,64.65,77,100,4.99,overcast clouds
491,Brigantine,US,39.4101,-74.3646,79.09,66,60,14.2,broken clouds
492,Jardim,BR,-21.4803,-56.1381,90.73,25,4,10.8,clear sky
493,Methoni,GR,36.8197,21.7049,79.21,56,40,10.4,scattered clouds
494,Uusikaupunki,FI,60.8004,21.4084,48.94,87,100,11.3,overcast clouds
495,Baykit,RU,61.67,96.37,49.24,55,100,2.53,overcast clouds
496,Puri,IN,19.8,85.85,90.12,85,35,11.9,scattered clouds
497,Lipin Bor,RU,60.2622,37.9763,46.94,95,100,4.61,overcast clouds
498,Kawakawa,NZ,-35.3833,174.0667,62.15,76,100,11.68,overcast clouds
499,Gorontalo,ID,0.5412,123.0595,75.22,86,96,1.43,overcast clouds
500,Faanui,PF,-16.4833,-151.75,81.01,68,19,16.11,few clouds
501,Kasangulu,CD,-4.5911,15.1708,76.53,77,63,4.07,broken clouds
502,Teguise,ES,29.0605,-13.564,70.02,64,40,9.22,scattered clouds
503,Toronto,CA,43.7001,-79.4163,68.16,55,75,13.8,broken clouds
504,Rundu,NA,-17.9333,19.7667,66.87,31,0,4.38,clear sky
505,Hofn,IS,64.2539,-15.2082,48.78,75,42,9.91,scattered clouds
506,Vostok,RU,46.4856,135.8833,47.39,94,10,3.8,clear sky
507,Banswada,IN,18.3833,77.8833,93.22,22,11,5.39,few clouds
508,Virginia Beach,US,36.8529,-75.978,82.02,60,12,5.01,few clouds
509,Diapaga,BF,12.0708,1.7889,98.67,25,53,2.24,light rain
510,Zaykovo,RU,57.5613,62.7568,52.95,92,40,5.86,scattered clouds
511,Ha Tinh,VN,18.3333,105.9,79.16,82,33,5.77,scattered clouds
512,Chimbote,PE,-9.0853,-78.5783,69.51,68,52,9.91,broken clouds
513,Gimli,CA,50.6336,-96.9907,50.02,93,100,3.44,overcast clouds
514,Sitka,US,57.0531,-135.33,57.36,66,100,1.16,overcast clouds
515,Tecpan,GT,14.7623,-90.9947,66.88,79,63,2.51,broken clouds
516,Darnah,LY,32.767,22.6367,88.39,29,7,14.16,clear sky
517,Zonguldak,TR,41.25,31.8333,62.49,74,3,2.71,clear sky
518,Saldanha,ZA,-33.0117,17.9442,57.25,89,23,9.91,light rain
519,Litovko,RU,49.2361,135.1742,47.52,94,46,5.66,scattered clouds
520,Kibre Mengist,ET,5.8833,38.9833,58.5,96,87,2.82,light rain
521,Aswan,EG,24.0934,32.907,99.7,13,0,6.91,clear sky
522,Maravilha,BR,-26.7608,-53.1725,58.62,84,99,2.35,moderate rain
523,Tateyama,JP,34.9833,139.8667,70.11,84,99,7.74,overcast clouds
524,Chicama,PE,-7.8447,-79.1469,63.14,59,45,8.43,scattered clouds
525,Meghri,AM,38.9029,46.2446,64.29,73,1,5.53,clear sky
526,Kahului,US,20.8947,-156.47,73.85,94,100,4.0,overcast clouds
527,Wladyslawowo,PL,54.7909,18.4009,55.0,87,97,14.54,overcast clouds
528,Malanje,AO,-9.5402,16.341,68.52,43,0,2.28,clear sky
529,Kruisfontein,ZA,-34.0033,24.7314,61.88,80,20,16.28,few clouds
530,Khanino,RU,54.211,36.6229,55.51,83,18,9.37,few clouds
531,Port-Gentil,GA,-0.7193,8.7815,78.76,78,20,13.8,few clouds
532,Ugoofaaru,MV,5.6667,73.0,82.2,79,93,16.55,overcast clouds
533,Nadvoitsy,RU,63.8667,34.3167,52.83,79,97,4.72,light rain
534,Bahia Blanca,AR,-38.7196,-62.2724,50.52,57,40,12.66,scattered clouds
535,San Cristobal,VE,7.7669,-72.225,82.58,47,92,8.46,overcast clouds
536,Arequipa,PE,-16.3989,-71.535,66.27,11,0,9.22,clear sky
537,Kichera,RU,55.9375,110.0997,37.58,78,95,6.31,overcast clouds
538,Amapa,BR,1.0,-52.0,83.88,72,53,5.19,broken clouds
539,Palu,ID,-0.8917,119.8707,77.38,91,100,1.5,overcast clouds
540,Hay River,CA,60.8156,-115.7999,49.98,66,20,9.22,few clouds
541,Fonte Boa,BR,-2.4959,-66.2662,76.62,90,64,3.8,broken clouds
542,Ojinaga,MX,29.5667,-104.4167,98.56,24,0,0.0,clear sky
543,Mukhen,RU,48.1,136.1,52.79,92,7,6.04,clear sky
544,Palmer,US,42.1584,-72.3287,75.2,76,100,1.01,overcast clouds
545,Sao Joao Da Barra,BR,-21.6403,-41.0511,82.49,68,100,11.74,overcast clouds
546,Darfield,GB,53.5339,-1.376,60.84,59,100,8.55,overcast clouds
547,Alta Floresta,BR,-9.8756,-56.0861,96.62,38,40,6.91,scattered clouds
548,Marsa Matruh,EG,31.3525,27.2453,82.6,42,0,9.22,clear sky
549,Novyy Urengoy,RU,66.0833,76.6333,52.92,47,0,16.04,clear sky
550,Grand-Santi,GF,4.25,-54.3833,90.41,45,45,3.62,scattered clouds
551,Bella Union,UY,-30.2752,-57.6007,63.63,91,99,4.97,overcast clouds
552,Porosozero,RU,62.7191,32.727,53.56,78,100,7.36,overcast clouds
553,Finschhafen,PG,-6.6024,147.8681,78.67,83,51,5.61,broken clouds
554,Tema,GH,5.667,-0.0166,84.61,79,20,10.36,few clouds
555,Bandarbeyla,SO,9.4942,50.8122,81.97,77,25,25.17,scattered clouds
556,Sobolevo,RU,54.4299,31.8996,48.43,86,55,7.27,broken clouds
557,Curumani,CO,9.1999,-73.5427,94.24,45,93,3.76,overcast clouds
558,Raisinghnagar,IN,29.5358,73.4492,96.46,17,0,9.28,clear sky
559,Atar,MR,20.5169,-13.0499,99.55,22,67,11.25,broken clouds
560,Olovyannaya,RU,50.95,115.5667,44.89,39,86,5.03,overcast clouds
561,Gawler,AU,-34.6,138.7333,51.6,97,6,3.78,clear sky
562,Kyabram,AU,-36.3167,145.05,43.32,82,29,1.34,scattered clouds
563,Mahibadhoo,MV,3.7833,72.9667,83.52,76,46,14.5,scattered clouds
564,Catalina Foothills,US,32.2979,-110.9187,90.91,10,0,12.66,clear sky
565,Abu Dhabi,AE,24.4667,54.3667,89.62,51,0,5.75,clear sky
566,Pochutla,MX,15.7432,-96.4661,79.83,69,100,7.36,overcast clouds
567,Sao Miguel Do Araguaia,BR,-13.275,-50.1628,91.81,25,8,4.23,clear sky
568,Morondava,MG,-20.2833,44.2833,76.87,68,0,12.93,clear sky
569,Bauchi,NG,10.5,10.0,96.26,17,6,6.64,clear sky
570,Candido Mendes,BR,-1.4467,-45.7167,82.72,77,53,4.21,broken clouds
571,Bolshaya Sosnova,RU,57.6713,54.6029,49.86,93,100,9.31,moderate rain
572,Vestmanna,FO,62.1564,-7.1664,45.52,66,20,18.41,few clouds
573,Bowen,AU,-20.0167,148.2333,65.34,71,2,5.1,clear sky
574,Marti,CU,22.9475,-80.9203,87.04,54,100,4.63,overcast clouds
575,Clearwater,US,27.9659,-82.8001,90.18,58,0,7.0,clear sky
576,Camabatela,AO,-8.1881,15.375,71.15,59,48,4.12,scattered clouds
577,Belmopan,BZ,17.25,-88.7667,82.78,94,100,0.4,overcast clouds
578,Ibanda,TZ,-2.7974,32.4746,66.97,89,100,2.62,light rain
579,Belaya Gora,RU,68.5333,146.4167,40.1,60,48,5.84,scattered clouds
580,Isla Mujeres,MX,21.2311,-86.731,86.16,64,100,7.65,overcast clouds
581,Brooks,CA,50.5834,-111.8851,62.58,45,91,8.05,overcast clouds
582,Daru,PG,-9.0763,143.2092,79.09,73,97,8.75,overcast clouds
583,Senanga,ZM,-16.1167,23.2667,65.86,26,0,5.64,clear sky
584,Ode,NG,7.7899,5.7117,73.65,90,88,0.85,heavy intensity rain
585,Karera,IN,25.4667,78.15,99.18,22,17,15.03,few clouds
586,Monopoli,IT,40.9559,17.2896,88.02,44,13,15.35,few clouds
587,Samarai,PG,-10.6167,150.6667,78.21,72,49,11.83,scattered clouds
588,Glendive,US,47.1053,-104.7125,72.32,44,91,6.53,overcast clouds
589,Dunedin,NZ,-45.8742,170.5036,44.8,79,37,3.67,scattered clouds
590,Broumov,CZ,50.5857,16.3318,57.29,60,62,13.11,broken clouds
591,Nizwa,OM,22.9333,57.5333,94.96,12,0,7.54,clear sky
592,Sao Sebastiao,BR,-23.76,-45.4097,82.09,45,94,2.24,overcast clouds
593,Buchanan,LR,5.8808,-10.0467,82.08,80,78,6.42,broken clouds
594,Tuymazy,RU,54.6067,53.7097,55.76,96,100,11.41,overcast clouds
595,Perbaungan,ID,3.5679,98.956,78.91,92,94,4.29,overcast clouds
596,Flinders,AU,-34.5833,150.8552,54.18,83,21,1.99,few clouds
597,Qeshm,IR,26.9581,56.2719,93.07,68,0,7.45,clear sky
598,Katherine,AU,-14.4667,132.2667,62.92,59,57,6.91,broken clouds
599,Ardakan,IR,32.31,54.0175,82.53,13,0,15.59,clear sky
600,Fergus Falls,US,46.283,-96.0776,76.98,66,0,5.75,clear sky
601,Nicoya,CR,10.1483,-85.452,86.97,62,45,1.28,scattered clouds
602,Yeppoon,AU,-23.1333,150.7333,60.58,73,43,5.35,scattered clouds
603,Muisne,EC,0.6,-80.0333,78.08,83,98,12.84,overcast clouds
604,Bonthe,SL,7.5264,-12.505,82.4,75,94,8.79,overcast clouds
605,Soe,ID,-9.8607,124.284,63.72,90,60,4.18,broken clouds
606,Berdigestyakh,RU,62.0989,126.6992,45.81,88,100,11.39,light rain
607,Ayia Marina,GR,37.75,23.5333,86.45,76,2,12.17,clear sky
608,Luderitz,NA,-26.6481,15.1594,56.77,86,3,9.06,clear sky
609,Kavaratti,IN,10.5669,72.642,82.92,75,13,5.95,few clouds
610,Kralendijk,BQ,12.15,-68.2667,80.44,85,100,21.34,overcast clouds
611,Broken Hill,AU,-31.95,141.4333,54.48,58,51,5.68,broken clouds
612,Assiniboia,CA,49.6334,-105.9845,64.58,46,57,12.33,broken clouds
613,Bougouni,ML,11.417,-7.479,97.32,30,18,4.85,few clouds
614,Pandan,PH,14.0453,124.1694,79.88,85,35,8.23,light rain
615,Devgarh,IN,25.5333,73.9,86.85,39,0,16.13,clear sky
616,Yabrud,SY,33.9674,36.6574,71.33,23,59,2.24,broken clouds
617,Tromso,NO,69.6496,18.957,51.82,50,40,9.22,scattered clouds
618,La Rioja,ES,42.25,-2.5,78.58,43,7,6.76,clear sky
619,Harper,LR,4.375,-7.7169,82.8,72,46,8.59,scattered clouds
620,Oktyabrskoye,RU,43.0645,44.7417,68.14,64,27,6.71,scattered clouds
621,Traverse City,US,44.7631,-85.6206,72.73,56,44,3.0,scattered clouds
622,Asyut,EG,27.181,31.1837,92.48,14,0,9.84,clear sky
623,Horta,PT,38.5333,-28.6333,64.04,52,20,14.97,few clouds
624,San Juan,AR,-31.5375,-68.5364,55.63,48,0,5.39,clear sky
625,Nova Vicosa,BR,-17.8919,-39.3719,78.67,61,64,6.62,broken clouds
626,Nurota,UZ,40.5614,65.6886,65.23,37,4,11.27,clear sky
627,Juba,SS,4.8517,31.5825,78.57,62,91,0.51,light rain
628,Jalu,LY,29.0331,21.5482,99.25,8,0,7.56,clear sky
629,Ust-Omchug,RU,61.15,149.6333,34.57,87,96,0.65,overcast clouds
630,Dudinka,RU,69.4058,86.1778,31.78,78,5,14.25,clear sky
631,Mehamn,NO,71.0357,27.8492,46.31,82,55,16.64,broken clouds
632,Gamba,GA,-2.65,10.0,75.15,82,23,7.18,few clouds
633,Brownwood,US,31.7093,-98.9912,91.4,46,0,18.41,clear sky
634,Bubaque,GW,11.2833,-15.8333,82.62,68,15,10.6,few clouds
635,Carauari,BR,-4.8828,-66.8958,87.49,62,69,2.77,broken clouds
636,Kloulklubed,PW,7.0419,134.2556,82.83,77,100,11.14,moderate rain
637,Kiama,AU,-34.6833,150.8667,54.37,83,34,3.0,scattered clouds
638,Xining,CN,36.6167,101.7667,53.92,70,77,4.34,broken clouds
639,Yulara,AU,-25.2406,130.9889,64.69,56,100,11.97,overcast clouds
640,Svetlogorsk,BY,52.6333,29.7333,49.8,81,87,9.71,overcast clouds
641,Teahupoo,PF,-17.8333,-149.2667,67.96,76,14,15.79,few clouds
642,Mareeba,AU,-17.0,145.4333,59.43,94,9,1.36,clear sky
643,Gali,GE,42.6265,41.7381,61.79,86,6,0.43,clear sky
644,Chitrakonda,IN,18.1167,82.0833,89.17,26,62,4.68,broken clouds
645,Egvekinot,RU,66.3167,-179.1667,35.55,84,97,4.12,overcast clouds
646,Lavrentiya,RU,65.5833,-171.0,34.21,97,100,3.15,overcast clouds
647,Cuauhtemoc,MX,28.4167,-106.8667,80.19,15,100,11.27,overcast clouds
648,Delmas,HT,18.5447,-72.3028,89.82,47,87,2.55,overcast clouds
649,Selma,US,36.5708,-119.6121,73.02,47,76,9.66,broken clouds
650,Kifri,IQ,34.6959,44.9661,90.03,9,0,6.46,clear sky
651,Dawson,US,31.7735,-84.4466,83.62,44,0,6.31,clear sky
652,Balad,IQ,34.0164,44.1453,89.74,7,0,10.31,clear sky
653,Bud,US,39.447,-86.1758,69.82,71,4,5.55,clear sky
654,Grand Gaube,MU,-20.0064,57.6608,75.6,72,2,3.0,clear sky
655,Uspenka,UA,48.3903,39.1619,63.37,80,78,1.79,broken clouds
656,Keti Bandar,PK,24.1447,67.4497,81.77,88,2,23.53,clear sky
657,Dunda,TZ,-8.1167,34.25,66.69,59,44,7.07,scattered clouds
658,Sicamous,CA,50.8331,-118.9856,60.19,43,66,3.76,broken clouds
659,Alsonemedi,HU,47.3152,19.1584,68.5,28,40,13.8,scattered clouds
660,Sotouboua,TG,8.5667,0.9833,86.61,52,33,5.35,scattered clouds
661,Honningsvag,NO,70.9821,25.9704,55.15,58,48,20.71,scattered clouds
662,Kupang,ID,-10.1667,123.5833,75.96,79,22,6.22,few clouds
663,Harbour Breton,CA,47.4833,-55.7983,42.44,93,100,25.79,overcast clouds
664,Ewing,US,40.2698,-74.7999,78.19,70,75,11.5,broken clouds
665,Carberry,CA,49.8689,-99.3602,61.03,79,100,4.5,overcast clouds
666,Santarem,BR,-2.4431,-54.7083,86.13,74,20,12.66,few clouds
667,Along,IN,28.1667,94.7667,70.48,98,20,0.94,few clouds
668,Pioner,RU,55.3166,85.9508,67.44,34,0,4.47,clear sky
669,Key Largo,US,25.0865,-80.4473,90.0,64,5,9.4,clear sky
670,Madang,PG,-5.2246,145.7966,76.05,91,94,2.37,overcast clouds
671,Molchanovo,RU,57.5817,83.7692,59.76,49,78,5.14,broken clouds
672,Belyy Yar,RU,53.6039,91.3903,55.29,49,0,4.47,clear sky
673,Sarkand,KZ,45.41,79.9186,60.17,85,100,7.47,overcast clouds
674,Byron Bay,AU,-28.65,153.6167,58.71,79,0,11.34,clear sky
675,Jian,CN,27.1172,114.9793,72.99,97,93,2.19,light rain
676,Nhlangano,SZ,-27.1167,31.2,57.74,83,0,4.18,clear sky
677,Chapais,CA,49.7834,-74.8492,62.55,44,79,14.34,broken clouds
678,Rorvik,NO,64.8621,11.2373,45.59,88,100,21.54,light rain
679,Ayan,RU,56.45,138.1667,33.82,97,100,17.0,light snow
680,Birao,CF,10.2849,22.7882,89.64,34,62,7.74,broken clouds
681,Seoul,KR,37.5683,126.9778,63.84,55,1,3.42,clear sky
682,Kingman,US,35.1894,-114.053,84.54,8,0,32.21,clear sky
683,Vila Velha,BR,-20.3297,-40.2925,84.15,70,75,9.22,broken clouds
684,Vila Franca Do Campo,PT,37.7167,-25.4333,65.19,90,100,11.23,overcast clouds
685,Mercedes,AR,-34.6515,-59.4307,57.78,62,96,4.59,overcast clouds
686,Telde,ES,27.9924,-15.4192,70.05,68,75,11.5,broken clouds
687,Choix,MX,26.7092,-108.3219,102.18,10,12,4.94,few clouds
688,Suntar,RU,62.1444,117.6319,42.28,65,100,5.73,overcast clouds
689,Qaqortoq,GL,60.7167,-46.0333,48.47,49,50,0.85,scattered clouds
690,Katete,UG,-0.7818,29.7544,63.46,95,100,3.27,light rain
691,Senno,RU,59.5336,33.9167,51.26,90,100,4.23,overcast clouds
692,Kitale,KE,1.0157,35.0062,56.82,90,81,5.66,light rain
693,Radhanpur,IN,23.8333,71.6,87.3,62,0,20.85,clear sky
694,Novopskov,UA,49.5464,39.0899,54.1,80,81,2.59,broken clouds
695,Kemijarvi,FI,66.7131,27.4306,52.25,84,93,11.5,overcast clouds
696,Langham,CA,52.3668,-106.9679,68.02,57,100,12.84,overcast clouds
697,Ovre Ardal,NO,61.3167,7.8,45.14,83,100,5.03,overcast clouds
698,Buta,CD,2.7858,24.73,69.33,96,100,3.76,overcast clouds
699,Commerce,US,34.0006,-118.1598,65.98,71,100,1.01,overcast clouds
700,Andilamena,MG,-17.0167,48.5833,59.95,93,29,7.87,scattered clouds
701,Shieli,KZ,44.1667,66.75,65.19,43,97,7.76,overcast clouds
702,Deputatskiy,RU,69.3,139.9,18.95,92,29,1.57,scattered clouds
703,Adrar,MR,20.5022,-10.0711,99.14,21,91,6.87,overcast clouds
704,Pingdingshan,CN,33.7385,113.3012,69.69,84,58,13.4,broken clouds
705,Porto Novo,BJ,6.4965,2.6036,83.21,71,53,8.88,broken clouds
706,Yanam,IN,16.7333,82.2167,89.24,56,68,5.57,broken clouds
707,Moron,AR,-34.6534,-58.6198,57.94,75,88,4.9,overcast clouds
708,Alugan,PH,12.2188,125.4808,78.13,88,89,5.21,overcast clouds
709,Muromtsevo,RU,56.3724,75.2418,58.51,61,100,4.16,overcast clouds
710,Gao,ML,16.6362,1.637,107.2,9,20,5.35,few clouds
711,Voh,NC,-20.9667,164.7,70.93,88,6,3.98,clear sky
712,Sampit,ID,-2.5333,112.95,75.0,89,98,1.9,overcast clouds
